City_ID,City,Lat,Lng,Max Temp,Humidity,Cloudiness,Wind Speed,Country,Date
0,puerto ayora,-0.74,-90.35,72.0,84,92,4.0,EC,1594235256
1,bengkulu,-3.8,102.27,74.8,90,84,4.81,ID,1594235257
2,marsabit,2.33,37.99,72.88,51,99,19.89,KE,1594235257
3,kaitangata,-46.28,169.85,44.01,81,91,14.0,NZ,1594235257
4,leningradskiy,69.38,178.42,45.3,78,0,7.29,RU,1594235257
5,kodiak,57.79,-152.41,60.8,59,1,6.93,US,1594235258
6,coihaique,-45.58,-72.07,42.8,60,40,5.82,CL,1594235258
7,bluff,-46.6,168.33,39.0,83,83,3.0,NZ,1594235086
8,new norfolk,-42.78,147.06,35.01,92,1,2.53,AU,1594235104
9,hobart,-42.88,147.33,37.4,93,0,9.17,AU,1594235258
10,nazret,8.55,39.27,67.03,75,100,7.11,ET,1594235259
11,klaksvik,62.23,-6.59,51.8,81,55,11.41,FO,1594235095
12,mar del plata,-38.0,-57.56,48.2,70,75,5.82,AR,1594235225
13,constitucion,-35.33,-72.42,53.04,60,98,5.28,CL,1594235259
14,acarau,-2.89,-40.12,83.1,69,46,12.12,BR,1594234969
15,iquique,-20.22,-70.14,62.6,67,75,8.05,CL,1594235116
16,longyearbyen,78.22,15.64,46.4,70,75,6.93,SJ,1594235260
17,port alfred,-33.59,26.89,66.76,45,0,15.97,ZA,1594235260
18,grindavik,63.84,-22.43,48.2,76,75,16.11,IS,1594235260
19,kidal,18.44,1.41,97.54,17,18,9.44,ML,1594235260
20,khanpur,28.65,70.66,96.94,44,64,17.05,PK,1594235260
21,castro,-24.79,-50.01,59.56,89,100,7.81,BR,1594235261
22,barrow,71.29,-156.79,39.2,86,1,14.99,US,1594235212
23,fort saint james,54.43,-124.25,65.61,41,100,5.26,CA,1594235027
24,kamloops,50.67,-120.32,69.8,46,75,10.29,CA,1594235042
25,butaritari,3.07,172.79,82.99,77,0,17.47,KI,1594235103
26,saint george,37.1,-113.58,93.2,9,1,3.36,US,1594235124
27,gawler,-34.6,138.73,46.0,78,0,3.0,AU,1594235262
28,khatanga,71.97,102.5,58.33,54,17,16.78,RU,1594235118
29,omboue,-1.57,9.26,73.26,87,0,7.67,GA,1594235262
30,matara,5.95,80.54,79.86,87,100,9.48,LK,1594235262
31,half moon bay,37.46,-122.43,78.01,68,5,13.87,US,1594235027
32,rikitea,-23.12,-134.97,67.14,65,11,19.8,PF,1594235263
33,kutum,14.2,24.67,80.94,49,44,13.56,SD,1594235263
34,roros,62.57,11.38,50.0,66,77,12.75,NO,1594235263
35,ushuaia,-54.8,-68.3,42.8,75,40,17.22,AR,1594235236
36,atuona,-9.8,-139.03,79.7,74,6,12.33,PF,1594235110
37,palmer,42.16,-72.33,84.2,66,75,9.17,US,1594235264
38,kapaa,22.08,-159.32,80.6,69,40,17.22,US,1594235264
39,cape town,-33.93,18.42,62.01,81,37,1.12,ZA,1594235264
40,busselton,-33.65,115.33,44.01,88,97,4.9,AU,1594235264
41,kathu,7.92,98.33,82.99,94,75,2.24,TH,1594235264
42,ancud,-41.87,-73.82,50.0,75,40,10.29,CL,1594235265
43,dhilwan,31.52,75.35,84.2,79,40,3.36,IN,1594235265
44,bestobe,52.5,73.1,68.27,70,0,7.9,KZ,1594235265
45,port elizabeth,-33.92,25.57,59.0,82,0,8.05,ZA,1594235266
46,teguldet,57.31,88.17,61.59,94,100,6.26,RU,1594235266
47,poum,-20.23,164.02,70.12,73,41,14.94,NC,1594235266
48,aksay,47.26,39.87,78.01,69,20,8.95,RU,1594235266
49,pisco,-13.7,-76.22,66.99,68,20,11.41,PE,1594235230
50,arraial do cabo,-22.97,-42.03,87.8,57,70,16.11,BR,1594235032
51,jamestown,42.1,-79.24,84.0,70,43,3.0,US,1594235032
52,kokopo,-4.35,152.26,77.31,82,8,8.37,PG,1594235267
53,chuy,-33.7,-53.46,49.82,93,100,12.06,UY,1594235267
54,punta arenas,-53.15,-70.92,30.0,92,75,4.7,CL,1594235267
55,cabo san lucas,22.89,-109.91,91.4,45,75,9.17,MX,1594235013
56,yellowknife,62.46,-114.35,61.0,55,75,9.17,CA,1594235268
57,ciudad bolivar,8.12,-63.55,90.28,51,88,7.78,VE,1594235268
58,mlonggo,-6.53,110.7,77.04,78,62,7.52,ID,1594235269
59,avera,33.19,-82.53,84.99,74,90,4.7,US,1594235269
60,luderitz,-26.65,15.16,60.8,67,0,4.7,NA,1594235269
61,clyde river,70.47,-68.59,37.4,100,90,6.93,CA,1594235269
62,provideniya,64.38,-173.3,49.3,84,53,4.59,RU,1594235269
63,flin flon,54.77,-101.86,69.8,73,90,9.17,CA,1594235269
64,vao,-22.67,167.48,68.4,62,100,16.08,NC,1594235263
65,kokkola,63.84,23.13,57.0,93,100,3.36,FI,1594235270
66,kirakira,-10.45,161.92,79.25,82,100,11.88,SB,1594235270
67,torbay,47.67,-52.73,64.0,63,40,14.99,CA,1594235098
68,kaputa,-8.47,29.66,70.2,49,0,3.78,ZM,1594235271
69,pakxan,18.38,103.66,78.01,86,100,0.65,LA,1594235271
70,santa maria,-29.68,-53.81,53.6,93,90,6.93,BR,1594235271
71,shenzhen,22.55,114.07,86.0,84,100,1.99,CN,1594235271
72,sabha,27.04,14.43,87.44,16,0,10.09,LY,1594235272
73,lahij,13.17,44.58,87.8,53,100,6.96,YE,1594235272
74,mataura,-46.19,168.86,39.0,83,82,3.0,NZ,1594235272
75,lompoc,34.64,-120.46,64.4,82,0,9.17,US,1594235107
76,urengoy,65.97,78.37,56.79,69,0,13.73,RU,1594235272
77,ketchikan,55.34,-131.65,57.2,93,90,3.36,US,1594235256
78,pochutla,15.74,-96.47,91.4,55,20,11.41,MX,1594235273
79,cidreira,-30.18,-50.21,59.72,83,73,21.09,BR,1594235165
80,saldanha,-33.01,17.94,55.4,66,0,3.36,ZA,1594235259
81,tasiilaq,65.61,-37.64,46.4,61,20,14.99,GL,1594234984
82,savannah bight,16.45,-85.85,83.01,79,100,11.86,HN,1594235273
83,raudeberg,61.99,5.14,52.0,88,100,9.26,NO,1594235273
84,port hardy,50.7,-127.42,57.2,93,90,4.7,CA,1594235274
85,axim,4.87,-2.24,76.3,86,100,9.42,GH,1594235274
86,igrim,63.19,64.42,71.89,70,0,2.51,RU,1594235274
87,mount isa,-20.73,139.5,53.6,54,0,1.12,AU,1594235118
88,tuatapere,-46.13,167.68,39.0,83,97,3.0,NZ,1594235126
89,winneba,5.35,-0.62,78.8,83,20,17.22,GH,1594235275
90,ponta do sol,32.67,-17.1,73.99,72,0,2.98,PT,1594235275
91,karratha,-20.74,116.85,66.33,26,0,9.22,AU,1594235275
92,gannan,47.91,123.5,60.96,67,0,3.2,CN,1594235275
93,sao filipe,14.9,-24.5,78.96,83,60,9.26,CV,1594235275
94,batagay,67.63,134.63,46.87,90,99,1.68,RU,1594235275
95,nanortalik,60.14,-45.24,43.7,82,100,5.19,GL,1594235276
96,east london,-33.02,27.91,67.69,54,0,16.11,ZA,1594235159
97,bonfim,3.08,-59.95,88.84,54,39,3.8,BR,1594235276
98,upernavik,72.79,-56.15,43.09,68,40,11.1,GL,1594235125
99,la ronge,55.1,-105.28,62.6,72,90,10.29,CA,1594235277
100,oranjemund,-28.55,16.43,64.44,36,23,11.23,NA,1594235277
101,zyryanskoye,56.83,86.63,62.33,96,100,8.03,RU,1594235277
102,hermanus,-34.42,19.23,57.0,72,100,9.04,ZA,1594235277
103,severo-kurilsk,50.68,156.12,47.97,93,100,15.59,RU,1594235127
104,okha,53.57,142.95,49.82,95,100,7.14,RU,1594235278
105,bethel,41.37,-73.41,75.0,94,75,10.29,US,1594235115
106,miles city,46.41,-105.84,78.8,27,1,12.75,US,1594235278
107,lebu,-37.62,-73.65,50.58,74,100,8.75,CL,1594235278
108,moose factory,51.26,-80.61,84.2,37,40,10.29,CA,1594235278
109,palauig,15.44,119.9,82.47,76,79,4.0,PH,1594235278
110,buraydah,26.33,43.98,96.8,18,0,11.41,SA,1594234989
111,kawhia,-38.07,174.82,42.01,94,83,1.01,NZ,1594235279
112,yeppoon,-23.13,150.73,57.2,87,21,4.7,AU,1594235279
113,tanout,14.97,8.89,95.25,23,0,6.04,NE,1594235279
114,victoria,22.29,114.16,86.0,79,100,15.01,HK,1594235116
115,hithadhoo,-0.6,73.08,85.15,68,6,4.0,MV,1594235279
116,talnakh,69.49,88.4,50.0,81,94,22.37,RU,1594235118
117,fortuna,40.6,-124.16,66.0,82,20,11.41,US,1594235280
118,albany,42.6,-73.97,87.01,59,93,4.0,US,1594235186
119,biasca,46.36,8.97,77.0,57,42,3.36,CH,1594235280
120,pevek,69.7,170.31,43.81,75,100,2.71,RU,1594235091
121,andra,62.51,65.89,74.28,67,0,5.21,RU,1594235281
122,najran,17.49,44.13,95.0,13,40,6.93,SA,1594235281
123,itaituba,-4.28,-55.98,95.0,53,40,5.82,BR,1594235281
124,chalus,36.66,51.42,80.6,83,20,2.24,IR,1594235281
125,opuwo,-18.06,13.84,53.51,43,0,4.79,NA,1594235281
126,bonavista,48.65,-53.11,55.0,84,0,4.0,CA,1594235282
127,dymytrove,48.61,32.98,62.6,67,0,6.71,UA,1594235282
128,thabazimbi,-24.59,27.41,54.91,66,19,5.75,ZA,1594235282
129,narsaq,60.92,-46.05,55.4,58,75,6.93,GL,1594234984
130,avarua,-21.21,-159.78,73.4,69,94,17.22,CK,1594234984
131,petropavlovsk-kamchatskiy,53.05,158.65,50.0,100,90,4.47,RU,1594235023
132,ilulissat,69.22,-51.1,55.4,43,75,13.87,GL,1594235258
133,umm lajj,25.02,37.27,82.53,59,0,3.0,SA,1594234991
134,faanui,-16.48,-151.75,76.55,81,53,29.95,PF,1594235283
135,namatanai,-3.67,152.43,78.57,79,12,5.91,PG,1594235284
136,vardo,70.37,31.11,48.2,93,100,11.41,NO,1594235284
137,georgetown,5.41,100.34,77.0,94,20,11.41,MY,1594235245
138,olafsvik,64.89,-23.71,49.12,73,30,14.79,IS,1594235284
139,ayan,56.45,138.17,48.15,89,10,4.05,RU,1594235285
140,qaanaaq,77.48,-69.36,46.02,56,0,1.72,GL,1594235285
141,mizdah,31.45,12.98,78.55,50,0,14.94,LY,1594235285
142,bowmore,34.94,-79.3,86.0,66,75,18.34,US,1594235285
143,miquelon,47.1,-56.38,64.4,77,0,12.75,PM,1594235286
144,isangel,-19.55,169.27,64.4,100,20,3.36,VU,1594235286
145,kurilsk,45.23,147.88,57.54,94,98,5.35,RU,1594235286
146,los algarrobos,8.5,-82.43,86.0,70,40,4.7,PA,1594235168
147,nikolskoye,59.7,30.79,60.8,72,40,4.47,RU,1594235108
148,geraldton,-28.77,114.6,46.4,100,0,8.34,AU,1594235286
149,port augusta,-32.5,137.77,36.0,80,0,9.17,AU,1594235287
150,vestmannaeyjar,63.44,-20.27,50.0,76,75,18.34,IS,1594235287
151,daru,-9.08,143.21,77.09,88,100,16.44,PG,1594235287
152,krabi,8.07,98.91,79.0,100,20,2.24,TH,1594235288
153,urambo,-5.07,32.05,70.32,42,33,4.43,TZ,1594235288
154,pritomskiy,53.77,87.61,57.79,91,100,1.79,RU,1594235288
155,hun,29.13,15.95,84.94,25,0,8.75,LY,1594235288
156,faya,18.39,42.45,71.6,56,100,3.85,SA,1594235288
157,krasnoborsk,61.56,45.93,72.9,68,34,0.49,RU,1594235288
158,mahibadhoo,3.78,72.97,83.82,68,8,3.31,MV,1594235288
159,salalah,17.02,54.09,82.4,88,75,5.82,OM,1594235289
160,north bend,43.41,-124.22,71.01,68,1,17.22,US,1594235115
161,marawi,8.0,124.29,75.99,90,100,5.99,PH,1594235289
162,kontagora,10.4,5.47,77.18,82,0,3.11,NG,1594235289
163,santa isabel do rio negro,-0.41,-65.02,87.96,60,9,2.17,BR,1594235289
164,new iberia,30.0,-91.82,89.6,70,40,8.05,US,1594235110
165,tuktoyaktuk,69.45,-133.04,35.6,100,90,2.24,CA,1594235086
166,abashiri,44.02,144.27,63.7,96,97,0.25,JP,1594235290
167,banda aceh,5.56,95.32,80.26,64,78,7.27,ID,1594235290
168,atar,20.52,-13.05,118.4,20,65,18.34,MR,1594235290
169,souillac,-20.52,57.52,71.6,60,75,12.75,MU,1594235291
170,cabatuan,10.88,122.49,77.09,83,100,3.74,PH,1594235291
171,kupang,-10.17,123.58,75.02,80,0,11.83,ID,1594235291
172,cherskiy,68.75,161.3,63.63,54,26,7.4,RU,1594235168
173,waverly,42.74,-84.62,89.6,55,75,12.75,US,1594235198
174,springbok,-29.66,17.89,56.53,35,0,8.05,ZA,1594235291
175,north bay,46.32,-79.47,87.01,51,40,8.05,CA,1594235164
176,norman wells,65.28,-126.83,62.6,51,75,13.87,CA,1594235292
177,saskylakh,71.92,114.08,54.52,71,45,9.53,RU,1594235292
178,chunoyar,57.45,97.32,59.41,78,17,6.2,RU,1594235292
179,meulaboh,4.14,96.13,75.6,89,100,6.91,ID,1594235094
180,mogwase,-25.18,27.27,56.5,59,34,10.69,ZA,1594235293
181,bathsheba,13.22,-59.52,87.8,62,40,21.92,BB,1594235293
182,dubbo,-32.25,148.62,46.4,93,21,13.87,AU,1594235293
183,hranice,49.55,17.73,60.01,93,90,3.51,CZ,1594235294
184,bandarbeyla,9.49,50.81,81.05,70,55,28.86,SO,1594235160
185,callaway,30.15,-85.57,90.0,66,20,14.99,US,1594235295
186,vaini,-21.2,-175.2,71.6,94,75,4.7,TO,1594235295
187,berlevag,70.86,29.09,46.4,100,75,6.93,NO,1594235127
188,rawson,-43.3,-65.1,51.13,45,3,19.06,AR,1594235295
189,sola,-13.88,167.55,78.8,94,90,11.41,VU,1594235295
190,coquimbo,-29.95,-71.34,59.0,67,0,13.87,CL,1594235295
191,henties bay,-22.12,14.28,60.62,62,0,9.26,NA,1594235124
192,sao felix do xingu,-6.64,-51.99,90.37,41,78,2.64,BR,1594235296
193,porto walter,-8.27,-72.74,77.31,93,100,2.84,BR,1594235296
194,zhangye,38.93,100.45,74.68,26,47,6.24,CN,1594235296
195,laurel,39.1,-76.85,91.99,43,1,4.7,US,1594235101
196,saint-philippe,-21.36,55.77,68.0,68,58,8.05,RE,1594235296
197,bay roberts,47.6,-53.26,66.99,67,2,5.08,CA,1594235128
198,acapulco,16.86,-99.89,84.2,74,90,5.82,MX,1594235111
199,sitka,57.05,-135.33,55.4,82,90,3.36,US,1594235297
200,qasigiannguit,68.82,-51.19,55.4,43,75,13.87,GL,1594235298
201,san cristobal,7.77,-72.22,96.8,32,40,20.8,VE,1594235170
202,baruun-urt,46.68,113.28,64.9,62,0,8.79,MN,1594235298
203,kjollefjord,70.95,27.35,46.4,100,90,3.36,NO,1594235298
204,sergeyevka,53.88,67.42,65.98,77,2,3.85,KZ,1594235298
205,vila velha,-20.33,-40.29,78.8,65,20,13.87,BR,1594235145
206,port hedland,-20.32,118.57,57.2,30,0,8.05,AU,1594235299
207,lebyazhye,55.27,66.49,68.31,76,0,4.72,RU,1594235299
208,wonthaggi,-38.6,145.59,42.01,91,50,4.36,AU,1594235299
209,quatre cocos,-20.21,57.76,71.6,60,75,12.75,MU,1594235299
210,yulara,-25.24,130.99,46.4,45,100,8.05,AU,1594235299
211,chicama,-7.84,-79.15,71.47,57,100,11.45,PE,1594235028
212,luba,3.46,8.55,78.8,100,40,5.82,GQ,1594235300
213,tautira,-17.73,-149.15,80.6,61,20,2.24,PF,1594235300
214,northam,51.03,-4.22,60.01,100,99,5.99,GB,1594235300
215,samana,19.21,-69.34,89.6,79,40,6.93,DO,1594235300
216,thompson,55.74,-97.86,75.2,41,75,4.7,CA,1594235300
217,iqaluit,63.75,-68.51,46.4,87,90,2.24,CA,1594235301
218,sur,22.57,59.53,89.64,58,67,11.34,OM,1594235301
219,moratuwa,6.77,79.88,82.4,83,40,9.17,LK,1594235301
220,pauini,-7.71,-66.98,90.81,47,52,3.2,BR,1594235301
221,obo,5.4,26.49,70.48,93,78,1.52,CF,1594235302
222,vila franca do campo,37.72,-25.43,69.8,68,75,10.29,PT,1594235302
223,neuquen,-38.95,-68.06,53.6,37,20,16.11,AR,1594235302
224,hirara,24.8,125.28,83.61,82,100,19.53,JP,1594235302
225,carnarvon,-24.87,113.63,59.0,82,0,12.75,AU,1594235302
226,ribeira grande,38.52,-28.7,71.6,73,75,11.41,PT,1594235302
227,havelock,34.88,-76.9,80.01,83,75,5.82,US,1594235197
228,tiksi,71.69,128.87,34.57,96,100,7.23,RU,1594235303
229,lata,40.16,-8.33,78.01,67,0,4.0,PT,1594235154
230,nedjo,9.5,35.5,58.46,99,100,2.08,ET,1594235303
231,anadyr,64.75,177.48,60.8,63,0,2.24,RU,1594235303
232,katsuura,35.13,140.3,77.0,95,100,1.99,JP,1594235303
233,sambava,-14.27,50.17,72.73,88,6,12.46,MG,1594235304
234,aksaray,38.37,34.03,69.8,68,40,8.05,TR,1594235304
235,chokurdakh,70.63,147.92,44.87,79,86,8.9,RU,1594235136
236,victor harbor,-35.57,138.62,48.0,87,0,1.99,AU,1594235304
237,payson,40.04,-111.73,82.0,31,1,4.7,US,1594235304
238,verkhnevilyuysk,63.45,120.32,54.61,66,40,4.43,RU,1594235305
239,fairbanks,64.84,-147.72,55.99,82,90,5.82,US,1594235305
240,airai,-8.93,125.41,55.26,100,32,3.89,TL,1594235091
241,hilo,19.73,-155.09,75.2,88,90,6.93,US,1594235305
242,beringovskiy,63.05,179.32,55.54,68,0,8.32,RU,1594235305
243,kruisfontein,-34.0,24.73,57.25,42,0,7.74,ZA,1594235305
244,bambous virieux,-20.34,57.76,71.6,60,75,12.75,MU,1594235306
245,byron bay,-28.65,153.62,54.0,93,75,4.7,AU,1594235306
246,college,64.86,-147.8,55.4,76,90,3.36,US,1594235163
247,gualaquiza,-3.4,-78.55,73.06,81,80,3.13,EC,1594235306
248,hof,50.32,11.92,55.99,96,96,4.0,DE,1594235306
249,puerto el triunfo,13.28,-88.55,93.2,52,41,3.36,SV,1594235306
250,caraquet,47.79,-64.94,64.4,93,90,6.93,CA,1594235307
251,olga,43.74,135.29,55.9,90,0,4.5,RU,1594235307
252,mount gambier,-37.83,140.77,42.8,87,90,11.41,AU,1594235307
253,andenes,69.31,16.12,51.8,81,2,6.93,NO,1594235307
254,leh,34.17,77.58,63.63,37,1,3.09,IN,1594235088
255,faro,37.02,-7.93,77.0,69,0,18.34,PT,1594235308
256,port lincoln,-34.73,135.87,50.16,54,0,14.76,AU,1594235061
257,wahiawa,21.5,-158.02,82.0,73,1,8.05,US,1594235308
258,saint-augustin,51.23,-58.65,65.93,69,100,23.29,CA,1594235308
259,porto novo,6.5,2.6,78.8,88,40,10.29,BJ,1594235308
260,ferme-neuve,46.7,-75.45,87.87,34,0,5.32,CA,1594235309
261,neryungri,56.67,124.65,56.08,90,100,5.95,RU,1594235132
262,goianesia,-15.32,-49.12,86.0,24,0,4.29,BR,1594235189
263,mafra,-26.11,-49.81,55.99,92,100,24.0,BR,1594235309
264,mahebourg,-20.41,57.7,71.6,60,75,12.75,MU,1594235310
265,biak,-0.91,122.88,76.35,85,85,6.17,ID,1594235310
266,adrar,20.5,-10.07,106.99,7,0,14.56,MR,1594235310
267,mollendo,-17.02,-72.01,63.64,70,51,8.93,PE,1594235310
268,fort nelson,58.81,-122.7,59.0,87,75,3.36,CA,1594235082
269,korla,41.76,86.15,89.01,57,0,3.0,CN,1594235311
270,salinopolis,-0.61,-47.36,82.76,72,24,8.95,BR,1594235311
271,garowe,8.41,48.48,84.06,42,100,21.14,SO,1594235221
272,bakchar,57.02,82.07,64.47,92,100,4.09,RU,1594235311
273,ponta delgada,37.73,-25.67,69.8,68,75,10.29,PT,1594235311
274,necochea,-38.55,-58.74,46.99,79,78,8.01,AR,1594235312
275,hami,42.8,93.45,79.38,21,0,9.04,CN,1594235312
276,marzuq,14.4,46.47,86.5,37,100,2.53,YE,1594235312
277,guadalupe,25.68,-100.25,89.6,59,20,13.87,MX,1594235312
278,portland,45.52,-122.68,69.01,55,75,4.7,US,1594235298
279,saint-leu,-21.15,55.28,68.0,68,12,8.05,RE,1594235313
280,san felipe,10.34,-68.74,91.8,44,0,3.4,VE,1594235313
281,knysna,-34.04,23.05,53.6,71,0,2.24,ZA,1594235155
282,osorno,-40.57,-73.15,46.4,87,100,8.05,CL,1594235206
283,aguimes,27.91,-15.45,86.0,33,0,24.16,ES,1594235313
284,kavaratti,10.57,72.64,83.26,79,100,15.21,IN,1594235313
285,high level,58.52,-117.14,60.8,67,90,4.7,CA,1594235314
286,koryukivka,51.77,32.25,57.02,91,0,5.75,UA,1594235314
287,kerema,-7.96,145.78,76.78,88,100,0.67,PG,1594235314
288,lagoa,39.05,-27.98,68.85,82,98,9.48,PT,1594235314
289,aklavik,68.22,-135.01,44.6,87,90,2.24,CA,1594235315
290,sydney,-33.87,151.21,48.99,93,40,5.82,AU,1594235296
291,magadan,59.57,150.8,49.96,95,100,11.21,RU,1594235216
292,falkenberg,56.91,12.49,59.0,67,20,11.41,SE,1594235315
293,gloversville,43.05,-74.34,82.99,88,75,3.36,US,1594235316
294,matelandia,-25.24,-54.0,55.4,93,90,11.41,BR,1594235316
295,kohlu,29.9,69.25,86.0,42,0,13.56,PK,1594235316
296,menongue,-14.66,17.69,54.59,37,0,3.49,AO,1594235316
297,woodstock,43.13,-80.75,89.6,52,75,8.05,CA,1594235076
298,sao gabriel da cachoeira,-0.13,-67.09,87.8,70,20,4.7,BR,1594235317
299,bulolo,-7.2,146.65,69.46,78,99,1.66,PG,1594235317
300,port blair,11.67,92.75,80.51,79,74,6.15,IN,1594235317
301,kearney,40.7,-99.08,91.4,46,1,18.34,US,1594235259
302,north port,27.04,-82.24,99.0,54,16,7.0,US,1594235236
303,alyangula,-13.85,136.42,62.6,93,0,11.34,AU,1594235161
304,arlit,18.74,7.39,95.07,26,97,2.71,NE,1594235151
305,sept-iles,50.2,-66.38,68.0,88,75,6.93,CA,1594235044
306,san quintin,30.48,-115.95,74.37,59,1,12.06,MX,1594235319
307,nishihara,26.18,127.76,82.4,94,75,12.75,JP,1594235319
308,hearst,49.68,-83.67,88.77,27,0,8.84,CA,1594235319
309,naze,28.37,129.48,82.4,94,100,8.05,JP,1594235319
310,ladario,-19.0,-57.6,59.0,77,75,9.17,BR,1594235319
311,yar-sale,66.83,70.83,57.2,62,0,10.45,RU,1594235320
312,dikson,73.51,80.55,42.76,87,87,15.48,RU,1594235088
313,los llanos de aridane,28.66,-17.92,75.2,78,20,13.87,ES,1594235320
314,gotsu,35.0,132.22,70.05,91,100,2.06,JP,1594235320
315,fukue,32.69,128.84,75.06,90,76,7.31,JP,1594235321
316,hasaki,35.73,140.83,75.2,94,75,6.93,JP,1594235321
317,imbituba,-28.24,-48.67,71.6,68,75,18.34,BR,1594235078
318,kavieng,-2.57,150.8,81.9,77,0,13.96,PG,1594235169
319,flinders,-34.58,150.86,46.0,87,0,1.99,AU,1594235321
320,benguela,-12.58,13.41,68.11,84,0,4.14,AO,1594235322
321,shubarkuduk,49.14,56.49,72.07,60,89,7.4,KZ,1594235322
322,hualmay,-11.1,-77.61,66.92,67,6,12.62,PE,1594235322
323,batemans bay,-35.72,150.18,37.99,100,0,4.0,AU,1594235322
324,sivas,39.79,37.0,62.6,72,75,6.93,TR,1594235253
325,lorengau,-2.02,147.27,81.27,81,100,11.36,PG,1594235322
326,lithakia,37.72,20.83,80.6,44,0,6.93,GR,1594235323
327,robinson,31.47,-97.11,93.2,52,40,8.05,US,1594235323
328,barcelos,41.54,-8.62,72.0,82,40,4.7,PT,1594235323
329,saint anthony,45.02,-93.22,90.0,52,1,14.99,US,1594235259
330,doha,25.29,51.53,95.0,84,0,4.7,QA,1594235086
331,pinega,64.7,43.39,66.02,94,100,10.6,RU,1594235324
332,gardner,42.58,-72.0,84.2,62,20,6.93,US,1594235324
333,katherine,-14.47,132.27,60.8,51,0,8.05,AU,1594235324
334,husavik,66.04,-17.34,59.0,51,64,16.11,IS,1594235324
335,broome,42.25,-75.83,90.0,58,20,5.82,US,1594235325
336,porbandar,21.64,69.61,83.23,82,36,17.09,IN,1594235325
337,champerico,14.3,-91.92,91.4,55,75,6.93,GT,1594235325
338,mayya,61.73,130.28,50.0,87,29,4.47,RU,1594235326
339,anchorage,61.22,-149.9,55.99,87,90,5.32,US,1594235179
340,tefe,-3.35,-64.71,87.8,66,40,3.36,BR,1594235326
341,sulechow,52.08,15.63,59.0,87,12,4.7,PL,1594235326
342,aripuana,-9.17,-60.63,95.81,28,0,1.45,BR,1594235104
343,bredasdorp,-34.53,20.04,50.0,87,100,3.36,ZA,1594235326
344,keti bandar,24.14,67.45,85.89,82,100,17.18,PK,1594235327
345,penzance,50.12,-5.54,63.0,93,100,12.75,GB,1594235327
346,ixtapa,20.7,-105.2,89.01,62,75,8.05,MX,1594235296
347,luena,-11.78,19.92,57.04,37,0,2.26,AO,1594235327
348,maceio,-9.67,-35.74,82.4,74,40,9.17,BR,1594235327
349,mineral wells,32.81,-98.11,95.0,53,20,6.93,US,1594235328
350,makakilo city,21.35,-158.09,82.0,65,1,4.7,US,1594235328
351,isla vista,34.41,-119.86,80.01,64,1,6.93,US,1594235083
352,sibolga,1.74,98.78,75.79,84,100,4.38,ID,1594235328
353,nuuk,64.18,-51.72,53.6,58,90,20.8,GL,1594235275
354,pringsewu,-5.36,104.97,73.53,94,100,2.33,ID,1594235328
355,rapid valley,44.06,-103.15,80.01,34,1,11.41,US,1594235329
356,sabzevar,36.21,57.68,79.93,16,0,10.87,IR,1594235226
357,rantepao,-2.97,119.9,65.43,89,88,1.48,ID,1594235329
358,basoko,1.24,23.62,76.33,79,100,0.96,CD,1594235329
359,iranshahr,27.2,60.68,98.6,25,94,13.87,IR,1594235330
360,yichun,47.7,128.9,52.84,97,0,1.9,CN,1594235330
361,komsomolskiy,40.43,71.72,84.2,25,90,4.7,UZ,1594235330
362,korce,40.62,20.78,71.6,53,28,3.33,AL,1594235330
363,tessalit,20.2,1.01,97.05,9,0,6.49,ML,1594235330
364,tateyama,34.98,139.87,75.99,100,100,5.01,JP,1594235330
365,tabuk,17.42,121.44,75.42,85,99,2.42,PH,1594235331
366,pacific grove,36.62,-121.92,73.0,68,1,10.29,US,1594235161
367,pangai,-19.8,-174.35,71.6,94,75,10.29,TO,1594235331
368,tual,-5.67,132.75,78.98,82,100,21.99,ID,1594235108
369,sechura,-5.56,-80.82,75.07,53,3,12.86,PE,1594235332
370,calvinia,-31.47,19.78,56.95,33,8,7.43,ZA,1594235332
371,antofagasta,-23.65,-70.4,60.8,72,0,13.87,CL,1594235332
372,alice springs,-23.7,133.88,41.0,52,98,5.79,AU,1594235079
373,tataranu,45.52,27.32,71.6,64,40,6.93,RO,1594235332
374,ladnun,27.65,74.38,91.24,55,65,17.09,IN,1594235332
375,truro,50.27,-5.05,63.0,93,100,16.11,GB,1594235333
376,krasnoselkup,65.7,82.47,55.42,76,0,16.62,RU,1594235333
377,panguipulli,-39.63,-72.33,48.2,93,90,3.36,CL,1594235333
378,kapiri mposhi,-13.97,28.68,59.13,52,0,6.17,ZM,1594235333
379,alta floresta,-9.88,-56.09,95.0,30,40,2.24,BR,1594235334
380,el porvenir,13.76,-87.35,84.2,54,40,5.82,HN,1594235334
381,maniitsoq,65.42,-52.9,41.07,91,100,14.56,GL,1594235136
382,palana,59.12,159.97,51.12,97,99,3.78,RU,1594235334
383,visnes,59.36,5.22,55.99,62,20,14.99,NO,1594235334
384,kamenka,51.32,42.77,89.01,27,85,4.0,RU,1594235335
385,mackay,-21.15,149.2,66.2,93,90,14.99,AU,1594235335
386,karaman,37.08,33.25,67.32,37,0,1.61,TR,1594235335
387,abha,18.22,42.51,71.6,56,100,2.08,SA,1594235335
388,boueni,-12.9,45.08,75.2,88,0,2.24,YT,1594235336
389,harper,4.38,-7.72,76.57,84,96,11.61,LR,1594235336
390,cam ranh,11.92,109.16,82.4,78,20,2.24,VN,1594235336
391,sobolevo,54.43,31.9,53.82,91,0,3.6,RU,1594235336
392,mamallapuram,12.63,80.17,82.4,74,40,8.05,IN,1594235336
393,dunedin,-45.87,170.5,42.01,90,100,3.0,NZ,1594235337
394,labuan,5.28,115.24,78.8,100,20,6.49,MY,1594235331
395,dakar,14.69,-17.44,84.2,74,20,13.87,SN,1594235337
396,pechenga,69.53,31.17,53.6,87,100,8.05,RU,1594235338
397,gewane,10.17,40.65,94.77,24,100,10.6,ET,1594235338
398,indi,17.17,75.97,77.68,80,100,16.64,IN,1594235338
399,loharu,28.45,75.82,92.26,47,0,5.61,IN,1594235338
400,vaitape,-16.52,-151.75,77.31,79,54,30.02,PF,1594235338
401,neustadt,49.71,12.09,57.2,100,90,4.7,DE,1594235338
402,kieta,-6.22,155.63,78.49,77,23,3.33,PG,1594235339
403,labuhan,-6.88,112.21,75.92,86,100,8.88,ID,1594235147
404,san patricio,19.22,-104.7,87.8,79,75,13.87,MX,1594235339
405,biltine,14.53,20.92,95.99,24,0,7.09,TD,1594235339
406,polunochnoye,60.87,60.42,71.2,75,0,3.91,RU,1594235340
407,zyuzelskiy,56.49,60.13,68.0,77,0,4.47,RU,1594235340
408,scarborough,54.28,-0.4,55.0,88,100,3.0,GB,1594235340
409,caravelas,-17.71,-39.25,76.41,61,0,5.7,BR,1594235340
410,talcahuano,-36.72,-73.12,53.6,76,75,12.75,CL,1594235341
411,peniche,39.36,-9.38,68.0,83,48,8.99,PT,1594235341
412,kysyl-syr,63.9,122.76,53.33,63,0,3.69,RU,1594235341
413,hamilton,39.18,-84.53,93.99,52,40,1.23,US,1594235342
414,potchefstroom,-26.72,27.1,51.98,62,0,10.04,ZA,1594235342
415,sourpi,39.1,22.9,75.2,64,40,12.75,GR,1594235342
416,tanta,30.79,31.0,72.1,87,0,5.75,EG,1594235342
417,concordia,-31.39,-58.02,55.4,62,75,9.17,AR,1594235211
418,vanino,49.09,140.25,54.03,98,100,4.05,RU,1594235343
419,tilichiki,60.47,166.1,48.54,100,100,4.97,RU,1594235343
420,beloha,-25.17,45.05,65.34,76,1,15.3,MG,1594235343
421,roald,62.58,6.13,52.0,81,75,10.29,NO,1594235343
422,sokoni,-6.43,39.55,75.2,94,75,11.41,TZ,1594235344
423,sidney,-33.87,151.21,48.99,93,40,5.82,AU,1594235296
424,yarega,63.44,53.58,75.11,72,0,6.02,RU,1594235344
425,imeni zhelyabova,58.95,36.6,55.94,84,100,8.48,RU,1594235344
426,constantine,36.37,6.61,82.4,32,0,6.93,DZ,1594235344
427,sao joao da barra,-21.64,-41.05,80.6,54,1,18.34,BR,1594235345
428,hovd,48.01,91.64,59.61,63,100,5.93,MN,1594235113
429,kismayo,-0.36,42.55,78.44,84,76,15.41,SO,1594235345
430,faxinal,-24.0,-51.32,59.88,90,78,3.87,BR,1594235277
431,treinta y tres,-33.23,-54.38,45.93,92,100,15.08,UY,1594235345
432,inirida,3.87,-67.92,88.48,60,87,2.24,CO,1594235346
433,meiganga,6.52,14.3,67.14,90,100,1.66,CM,1594235346
434,pundaguitan,6.37,126.17,83.25,70,100,4.03,PH,1594235346
435,curuca,-0.73,-47.85,81.82,77,16,5.03,BR,1594235346
436,ascension,30.22,-90.9,91.99,55,100,10.29,US,1594235346
437,ukiah,39.15,-123.21,82.99,39,1,4.7,US,1594235346
438,tigil,57.8,158.67,56.3,92,100,2.98,RU,1594235347
439,lasa,46.62,10.7,66.2,63,40,2.24,IT,1594235347
440,kimbe,-5.55,150.14,73.72,89,94,4.61,PG,1594235347
441,werda,-25.27,23.28,57.69,57,0,18.34,BW,1594235347
442,cranbrook,49.5,-115.77,64.4,52,75,4.36,CA,1594235312
443,havre-saint-pierre,50.23,-63.6,59.0,93,90,6.93,CA,1594235348
444,chingola,-12.53,27.88,58.91,42,0,0.98,ZM,1594235348
445,hambantota,6.12,81.12,78.8,100,75,13.15,LK,1594235348
446,mahendranagar,28.92,80.33,82.49,72,8,3.85,NP,1594235348
447,rockland,41.17,-74.05,86.0,92,100,1.01,US,1594235349
448,chumikan,54.72,135.31,47.07,93,97,4.56,RU,1594235349
449,xining,36.62,101.77,59.25,75,100,2.86,CN,1594235349
450,kingsland,30.8,-81.69,88.0,75,100,3.0,US,1594235349
451,aktau,43.65,51.2,86.88,30,0,6.82,KZ,1594235349
452,melfort,52.87,-104.62,69.8,73,90,12.75,CA,1594235305
453,altamira,-3.2,-52.21,91.4,59,40,5.82,BR,1594235350
454,nuristan,35.3,70.83,44.47,82,58,1.81,AF,1594235350
455,burnie,-41.07,145.92,45.0,91,54,1.01,AU,1594235350
456,sabang,5.89,95.32,83.41,66,39,11.39,ID,1594235350
457,buinsk,54.95,48.28,80.6,57,0,6.71,RU,1594235351
458,saint-michel-des-saints,46.68,-73.92,78.01,7,0,1.01,CA,1594235351
459,orlea,43.75,24.38,73.4,49,5,2.24,RO,1594235351
460,matamoros,25.53,-103.25,91.4,33,40,3.36,MX,1594235351
461,paraiso,9.84,-83.87,77.0,61,75,16.11,CR,1594235352
462,apostolove,47.66,33.71,62.6,67,0,6.71,UA,1594235352
463,kathmandu,27.72,85.32,75.2,83,75,6.93,NP,1594235203
464,inongo,-1.95,18.27,75.38,56,0,0.63,CD,1594235352
465,touros,-5.2,-35.46,82.4,69,40,11.41,BR,1594235353
466,cairns,-16.92,145.77,69.8,83,26,11.41,AU,1594235313
467,pangkalanbuun,-2.68,111.62,74.64,97,99,3.09,ID,1594235353
468,port moresby,-9.44,147.18,73.4,100,20,11.41,PG,1594235115
469,hongjiang,27.11,110.0,76.14,91,100,1.16,CN,1594235353
470,samarai,-10.62,150.67,78.24,87,85,18.92,PG,1594235354
471,surazh,53.02,32.39,54.82,92,0,3.83,RU,1594235354
472,tiznit,29.58,-9.5,88.34,22,0,7.38,MA,1594235354
473,saint-pierre,-21.34,55.48,68.0,68,3,8.05,RE,1594235354
474,pervomayskiy,53.25,40.29,71.94,85,100,6.78,RU,1594235354
475,acajutla,13.59,-89.83,87.8,58,20,5.59,SV,1594235063
476,bindi,9.92,-11.45,76.69,91,52,5.41,SL,1594235355
477,trincomalee,8.57,81.23,81.48,82,100,7.27,LK,1594235355
478,otukpo,7.19,8.13,75.25,94,100,2.86,NG,1594235355
479,mersing,2.43,103.84,77.0,94,70,4.7,MY,1594235100
480,pasni,25.26,63.47,87.39,68,100,6.44,PK,1594235356
481,comodoro rivadavia,-45.87,-67.5,46.4,53,45,18.34,AR,1594235356
482,balad,34.02,44.15,99.88,11,0,16.04,IQ,1594235225
483,nouadhibou,20.93,-17.03,71.6,88,75,27.51,MR,1594235356
484,emirdag,39.02,31.15,66.94,76,45,9.8,TR,1594235356
485,shingu,33.73,135.98,71.91,94,100,11.48,JP,1594235357
486,dhuburi,26.03,89.97,82.8,83,100,6.38,IN,1594235357
487,siavonga,-16.54,28.71,70.39,52,0,4.36,ZM,1594235357
488,muncar,-8.43,114.33,75.54,88,54,4.97,ID,1594235357
489,pando,-34.72,-55.95,50.0,87,90,6.93,UY,1594235358
490,santa cruz,-17.8,-63.17,57.2,71,90,12.75,BO,1594235358
491,tezu,27.92,96.17,76.28,85,100,3.13,IN,1594235358
492,esperance,-33.87,121.9,50.0,100,75,10.29,AU,1594235358
493,sarai,53.75,41.02,75.34,75,100,3.71,RU,1594235358
494,eureka,40.8,-124.16,66.0,77,90,3.36,US,1594235271
495,santa luzia,-19.77,-43.85,78.8,38,40,4.7,BR,1594235359
496,joensuu,62.6,29.76,61.0,67,1,3.36,FI,1594235359
497,tiarei,-17.53,-149.33,80.6,61,20,2.24,PF,1594235359
498,lucea,18.45,-78.17,87.8,74,20,17.22,JM,1594235359
499,chimbote,-9.09,-78.58,66.33,70,71,12.17,PE,1594235359
500,liberal,37.04,-100.92,96.8,32,1,23.04,US,1594235360
501,mahina,-17.51,-149.49,80.6,61,20,2.24,PF,1594235360
502,laguna,38.42,-121.42,90.0,34,0,2.71,US,1594235360
503,old town,44.93,-68.65,72.0,78,90,9.17,US,1594235360
504,brae,60.4,-1.35,51.8,81,30,8.05,GB,1594235361
505,pathein,16.78,94.73,78.39,92,100,4.07,MM,1594235361
506,the valley,18.22,-63.06,87.8,62,20,19.46,AI,1594235305
507,khiri mat,16.83,99.8,84.99,69,100,3.91,TH,1594235361
508,kommunisticheskiy,61.68,64.48,74.98,61,28,3.65,RU,1594235361
509,wanlaweyn,2.62,44.89,78.21,77,72,17.69,SO,1594235278
510,tourlaville,49.64,-1.57,62.01,93,90,17.22,FR,1594235362
511,tabou,4.42,-7.35,76.5,84,76,11.54,CI,1594235362
512,chara,56.91,118.26,62.04,72,100,2.98,RU,1594235362
513,quelimane,-17.88,36.89,67.73,87,45,3.96,MZ,1594235350
514,rocha,-34.48,-54.33,47.62,93,100,13.89,UY,1594235363
515,aykhal,66.0,111.5,53.6,62,90,11.18,RU,1594235363
516,padang,-0.95,100.35,75.69,83,100,3.44,ID,1594235363
517,chumphon,10.33,98.83,72.91,98,90,2.13,TH,1594235364
518,vostok,46.49,135.88,54.59,100,100,3.09,RU,1594235364
519,bundibugyo,0.74,30.04,68.49,78,98,2.08,UG,1594235364
520,mbekenyera,-10.0,38.98,71.24,84,100,4.81,TZ,1594235364
521,tashtyp,52.79,89.9,55.83,88,31,2.42,RU,1594235364
522,sagua la grande,22.81,-80.08,91.4,59,40,12.75,CU,1594235364
523,san martin,-33.08,-68.47,53.6,40,33,13.87,AR,1594235365
524,ekhabi,53.51,142.97,49.87,95,100,6.89,RU,1594235365
525,seoul,37.57,126.98,73.4,83,20,1.23,KR,1594235286
526,kuruman,-27.45,23.43,59.0,52,0,15.97,ZA,1594235365
527,jacareacanga,-6.22,-57.75,89.6,59,20,5.82,BR,1594235366
528,gondar,12.6,37.47,59.56,93,100,6.4,ET,1594235366
529,chimore,-16.98,-65.13,64.58,62,95,4.14,BO,1594235366
530,fez,34.04,-5.0,89.6,29,0,12.75,MA,1594235289
531,sakakah,29.97,40.21,91.4,10,0,9.17,SA,1594235366
532,noumea,-22.28,166.46,68.0,82,100,10.78,NC,1594235273
533,belaya kholunitsa,58.84,50.85,73.49,95,0,6.67,RU,1594235367
534,bud,39.45,-86.18,91.0,71,90,3.78,US,1594235367
535,pangnirtung,66.15,-65.71,42.8,93,75,16.11,CA,1594235367
536,aketi,2.74,23.78,75.81,78,93,1.66,CD,1594235367
537,lishu,43.3,124.33,63.36,58,0,4.85,CN,1594235367
538,alofi,-19.06,-169.92,66.2,100,58,4.7,NU,1594235132
539,black diamond,47.31,-122.0,68.0,75,100,1.01,US,1594235368
540,buchanan,5.88,-10.05,76.93,88,68,9.64,LR,1594235368
541,carutapera,-1.2,-46.02,82.36,75,2,7.65,BR,1594235368
542,norwalk,33.9,-118.08,82.99,54,1,3.36,US,1594235091
543,anori,-3.77,-61.64,87.51,62,63,3.09,BR,1594235368
544,bara,10.37,10.73,82.81,61,0,8.84,NG,1594235369
545,cockburn town,21.46,-71.14,84.42,80,1,16.35,TC,1594235369
546,gore,-46.1,168.94,39.0,83,95,3.0,NZ,1594235369
547,wamba,8.93,8.6,75.52,82,7,1.32,NG,1594235369
548,hofn,64.25,-15.21,53.6,81,75,6.93,IS,1594235369
549,cortez,37.35,-108.59,89.6,13,1,17.22,US,1594235370
550,abbeville,50.1,1.83,66.0,80,90,13.2,FR,1594235370
551,malakal,9.53,31.66,76.21,80,100,3.53,SS,1594235270
552,bereda,43.27,-7.54,64.99,74,12,10.0,ES,1594235370
553,bundaberg,-24.85,152.35,57.2,87,9,8.05,AU,1594235370
554,winnemucca,40.97,-117.74,78.8,16,1,4.7,US,1594235360
555,awjilah,29.11,21.29,82.56,50,0,19.6,LY,1594235371
556,key west,24.56,-81.78,91.4,59,20,10.29,US,1594235111
